[{"address":"上海市逸夫小学","lat":31.1399848243,"lon":121.4495599862,"tier":"tierA"},{"address":"上海市爱菊小学","lat":31.2194878522,"lon":121.4489000011,"tier":"tierA"},{"address":"上海市世界外国语小学","lat":31.1612818365,"lon":121.4267999788,"tier":"tierA"},{"address":"上海市盛大花园小学","lat":31.1823494921,"lon":121.4600204844,"tier":"tierA"},{"address":"上海市高安路一小","lat":31.2083964879,"lon":121.4524831568,"tier":"tierA"},{"address":"上海市向阳小学(襄阳南路)","lat":31.213935189,"lon":121.4634998911,"tier":"tierA"},{"address":"上海市汇师小学","lat":31.1944419385,"lon":121.4393665542,"tier":"tierA"},{"address":"上海市建襄小学","lat":31.2144848416,"lon":121.4666569858,"tier":"tierA"},{"address":"上海市黄浦区实验小学","lat":31.2290428593,"lon":121.4919689893,"tier":"tierA"},{"address":"上海市上外黄浦外国语小学","lat":31.2058880722,"lon":121.5001213813,"tier":"tierA"},{"address":"上海市蓬莱路第二小学","lat":31.2238528377,"lon":121.4966779966,"tier":"tierA"},{"address":"上海市卢湾二中心小学","lat":31.2207428865,"lon":121.4699139721,"tier":"tierA"},{"address":"上海市静教院附校","lat":31.2447368527,"lon":121.452284996,"tier":"tierA"},{"address":"上海市闸北实验小学","lat":31.2787994571,"lon":121.454916043,"tier":"tierA"},{"address":"上海市一师附小","lat":31.240657509,"lon":121.4441346701,"tier":"tierA"},{"address":"上海市静安区第一中心小学","lat":31.236496088,"lon":121.4555097331,"tier":"tierA"},{"address":"上海市明珠小学B区","lat":31.2293932559,"lon":121.5316287284,"tier":"tierA"},{"address":"上海实验学校","lat":31.1883827039,"lon":121.5153122665,"tier":"tierA"},{"address":"上海市明珠小学A区","lat":31.231717929,"lon":121.5248796693,"tier":"tierA"},{"address":"上海市明珠小学C区","lat":31.1669878681,"lon":121.5321410321,"tier":"tierA"},{"address":"上海市控江二村小学","lat":31.2931195025,"lon":121.5345411247,"tier":"tierA"},{"address":"上海市二师附小","lat":31.2825578783,"lon":121.5059680027,"tier":"tierA"},{"address":"上海市第六师范附属小学(羽山)","lat":31.2455448891,"lon":121.5671429673,"tier":"tierA"},{"address":"上海福山外国语小学(振华)","lat":31.2408498599,"lon":121.535165986,"tier":"tierA"},{"address":"上海虹口区外国语大学附属外国语小学","lat":31.3003585781,"lon":121.4745961201,"tier":"tierA"},{"address":"上海市打虎山路第一小学","lat":31.2802776759,"lon":121.5137598149,"tier":"tierA"},{"address":"上海市虹口区第三中心小学","lat":31.2713818544,"lon":121.4923329827,"tier":"tierA"},{"address":"上海市虹口区第四中心小学赤峰校区","lat":31.2898631163,"lon":121.4958896437,"tier":"tierA"},{"address":"上海市华师大附属小学","lat":31.2341954634,"lon":121.4127323349,"tier":"tierA"},{"address":"上海市广灵路小学","lat":31.2874248602,"lon":121.4849809809,"tier":"tierA"},{"address":"上海市闵行区实验小学","lat":31.1626690559,"lon":121.407858219,"tier":"tierA"},{"address":"上海市明强小学","lat":31.1595248583,"lon":121.3676649762,"tier":"tierA"},{"address":"上海市江苏路第五小学","lat":31.228636725,"lon":121.4306950315,"tier":"tierA"},{"address":"上海市愚园路第一小学","lat":31.2237656002,"lon":121.4324688256,"tier":"tierA"},{"address":"上海市华东师范大学附属双语学校","lat":31.2896339129,"lon":121.1783450239,"tier":"tierA"},{"address":"上海市普通小学","lat":31.390489899,"lon":121.2618739618,"tier":"tierA"},{"address":"上海市嘉定世界外国语学校","lat":31.3118237598,"lon":121.2789692546,"tier":"tierA"},{"address":"上海市宝山区第一中心小学","lat":31.4009064521,"lon":121.5029761064,"tier":"tierA"},{"address":"上海市宝山实验小学","lat":31.4107456843,"lon":121.4927092829,"tier":"tierA"},{"address":"上海市中科院上海实验学校","lat":31.3856163522,"lon":121.2388119441,"tier":"tierA"},{"address":"上海市宋庆龄学校","lat":31.1472148908,"lon":121.247724033,"tier":"tierA"},{"address":"上海市松江区实验小学","lat":31.0213247526,"lon":121.1984864707,"tier":"tierA"},{"address":"上海市青浦实验小学","lat":31.1433718335,"lon":121.1028299593,"tier":"tierA"},{"address":"上海市青浦世界外国语学校","lat":31.1967116469,"lon":121.2882149742,"tier":"tierA"},{"address":"上海师范大学附属外国语小学","lat":31.037474145,"lon":121.2409284417,"tier":"tierA"},{"address":"上海市上外松江外国语学校","lat":31.0589788295,"lon":121.2302909773,"tier":"tierA"},{"address":"上海市金山区第一实验小学","lat":30.9053102944,"lon":121.1786104732,"tier":"tierA"},{"address":"上海市民乐学校","lat":31.0250769423,"lon":121.2311546082,"tier":"tierA"},{"address":"上海小学","lat":31.1447299563,"lon":121.4425880575,"tier":"tierB"},{"address":"上海市崇明实验小学","lat":31.6266045889,"lon":121.4007846021,"tier":"tierA"},{"address":"上海市南桥小学","lat":30.937231465,"lon":121.4712767914,"tier":"tierA"},{"address":"上海市海棠小学","lat":30.7458785894,"lon":121.3598783742,"tier":"tierA"},{"address":"上海市园南小学","lat":31.1479814282,"lon":121.4475090649,"tier":"tierB"},{"address":"上海市徐汇区东二小学","lat":31.1896708231,"lon":121.4574250103,"tier":"tierB"},{"address":"上海师范大学第一附属小学","lat":31.161547895,"lon":121.4247080049,"tier":"tierB"},{"address":"上海市田林第三小学","lat":31.1772564445,"lon":121.433814577,"tier":"tierB"},{"address":"上海市求知小学","lat":31.1713418596,"lon":121.4348010063,"tier":"tierB"},{"address":"上海市徐汇区第一中心小学","lat":31.2189616222,"lon":121.4660252974,"tier":"tierB"},{"address":"上海市田林第四小学","lat":31.1830976695,"lon":121.4331241394,"tier":"tierB"},{"address":"上海师范大学第三附属实验学校","lat":31.1679178541,"lon":121.4253099595,"tier":"tierB"},{"address":"上海市上师大附属卢湾实验小学","lat":31.2145368804,"lon":121.4886790352,"tier":"tierB"},{"address":"上海市康健外国语实验小学","lat":31.1604798712,"lon":121.4201819825,"tier":"tierB"},{"address":"上海市曹光彪小学","lat":31.2411478795,"lon":121.4789200238,"tier":"tierB"},{"address":"上海市徽宁路三小","lat":31.217009774,"lon":121.4991417792,"tier":"tierB"},{"address":"上海市黄浦区第一中心小学","lat":31.2256018938,"lon":121.508988016,"tier":"tierB"},{"address":"上海市复兴东路三小","lat":31.226901853,"lon":121.4933850781,"tier":"tierB"},{"address":"上海市黄浦区卢湾一中心小学","lat":31.2177707997,"lon":121.4801855566,"tier":"tierB"},{"address":"上海私立永昌学校","lat":31.2156888312,"lon":121.4716319814,"tier":"tierB"},{"address":"上海市静安区第三中心小学","lat":31.245500663,"lon":121.4693990634,"tier":"tierB"},{"address":"上海市万航渡路小学","lat":31.2328871142,"lon":121.4380155926,"tier":"tierB"},{"address":"上海师范专科学校附属小学","lat":31.2078078766,"lon":121.4886350182,"tier":"tierB"},{"address":"上海市上外静安外国语小学","lat":31.2394050575,"lon":121.4700750383,"tier":"tierB"},{"address":"上海市闸北第三中心小学","lat":31.2599980599,"lon":121.4791952646,"tier":"tierB"},{"address":"上海市闸北区大宁国际小学","lat":31.2894166668,"lon":121.4670662538,"tier":"tierB"},{"address":"上海市扬波外国语小学","lat":31.2707544476,"lon":121.453526544,"tier":"tierB"},{"address":"上海市闸北第一中心小学","lat":31.2544028844,"lon":121.4826740425,"tier":"tierB"},{"address":"上海市闸北第二中心小学","lat":31.2869659009,"lon":121.4404149666,"tier":"tierB"},{"address":"上海市彭浦实验小学","lat":31.3226120432,"lon":121.4567570303,"tier":"tierB"},{"address":"上海市民办童园实验小学","lat":31.277747893,"lon":121.4645359967,"tier":"tierB"},{"address":"上海市彭浦新村第一小学","lat":31.3150279367,"lon":121.4652309258,"tier":"tierB"},{"address":"上海市海桐小学","lat":31.2074553144,"lon":121.54854975,"tier":"tierB"},{"address":"上海市浦东二中心小学","lat":31.2422778906,"lon":121.5559269942,"tier":"tierB"},{"address":"上海市竹园小学","lat":31.2370923083,"lon":121.5369722988,"tier":"tierB"},{"address":"上海市浦东外国语小学","lat":31.2730364257,"lon":121.6008960782,"tier":"tierB"},{"address":"上海市昌邑小学","lat":31.1870950304,"lon":121.5437831613,"tier":"tierB"},{"address":"上海市实验学校东校","lat":31.2394758393,"lon":121.5804299837,"tier":"tierB"},{"address":"上海市进才实验小学","lat":31.2361654018,"lon":121.5676559896,"tier":"tierB"},{"address":"上海市浦明师范学校附属小学","lat":31.2082152595,"lon":121.5383920706,"tier":"tierB"},{"address":"上海市新世界实验小学","lat":31.168657495,"lon":121.5097732249,"tier":"tierB"},{"address":"上海市建平实验小学","lat":31.2646028445,"lon":121.5788949593,"tier":"tierB"},{"address":"上海市平和双语学校","lat":31.2462772022,"lon":121.5963772421,"tier":"tierB"},{"address":"上海市华二浦东实验学校","lat":31.1769598436,"lon":121.5112970205,"tier":"tierB"},{"address":"上海市复旦大学附属小学","lat":31.2979466696,"lon":121.5119502683,"tier":"tierB"},{"address":"上海科技大学附属学校","lat":31.1695238909,"lon":121.6156099631,"tier":"tierB"},{"address":"上海市民办打一外国语小学","lat":31.2825144412,"lon":121.5224992495,"tier":"tierB"},{"address":"上海市上理工附小","lat":31.2979578549,"lon":121.5462720065,"tier":"tierB"},{"address":"上海市齐齐哈尔路第一小学","lat":31.2692248413,"lon":121.5329189646,"tier":"tierB"},{"address":"上海市杨浦小学","lat":31.306561279,"lon":121.5320027828,"tier":"tierB"},{"address":"上海市水丰路小学","lat":31.2929495539,"lon":121.5447440787,"tier":"tierB"},{"address":"上海杨浦区音乐学院实验学校","lat":31.3327609073,"lon":121.5391097269,"tier":"tierB"},{"address":"上海市红旗小学","lat":31.3047899032,"lon":121.4883599571,"tier":"tierB"},{"address":"上海市虹口区曲阳第三小学","lat":31.2859098769,"lon":121.5018101058,"tier":"tierB"},{"address":"上海市复旦科技园小学","lat":31.3382769019,"lon":121.5301609871,"tier":"tierB"},{"address":"上海市丽英小学","lat":31.2889048711,"lon":121.4854230371,"tier":"tierB"},{"address":"上海市宏星小学","lat":31.2876104029,"lon":121.4963971863,"tier":"tierB"},{"address":"上海市长青学校","lat":31.2593368525,"lon":121.5089159719,"tier":"tierB"},{"address":"上海市中州路小学","lat":31.2585571324,"lon":121.4892449237,"tier":"tierB"},{"address":"上海市崇明路小学","lat":31.251891927,"lon":121.4915088772,"tier":"tierB"},{"address":"上海市虹口实验学校","lat":31.294956054,"lon":121.5036348338,"tier":"tierB"},{"address":"上海市武宁路小学","lat":31.2465008777,"lon":121.4300460058,"tier":"tierB"},{"address":"上海市虹口区第一中心小学","lat":31.2547808921,"lon":121.4950170297,"tier":"tierB"},{"address":"上海市北郊学校","lat":31.2817098877,"lon":121.4992555945,"tier":"tierB"},{"address":"上海市新普陀小学","lat":31.2437008825,"lon":121.3963759881,"tier":"tierB"},{"address":"上海市江宁学校","lat":31.2535928408,"lon":121.4429980441,"tier":"tierB"},{"address":"上海市中远实验学校","lat":31.2576478507,"lon":121.4428309593,"tier":"tierB"},{"address":"上海市金洲小学","lat":31.2553521454,"lon":121.3932049697,"tier":"tierB"},{"address":"上海市朝春中心小学","lat":31.2473028786,"lon":121.4134299589,"tier":"tierB"},{"address":"上海市长征中心小学","lat":31.2448907575,"lon":121.3778523895,"tier":"tierB"},{"address":"上海市真如文英小学","lat":31.2544018812,"lon":121.4109550374,"tier":"tierB"},{"address":"上海市培佳双语学校","lat":31.2718138838,"lon":121.4465549746,"tier":"tierB"},{"address":"上海市七宝外国语小学","lat":31.1431958177,"lon":121.3769520179,"tier":"tierB"},{"address":"上海市晋元高级中学附属学校","lat":31.2783764102,"lon":121.4127865027,"tier":"tierB"},{"address":"上海市中山北路第一小学","lat":31.2554555602,"lon":121.4345763401,"tier":"tierB"},{"address":"上海市莘庄镇小学","lat":31.1096915703,"lon":121.383407421,"tier":"tierB"},{"address":"上海市七宝实验小学","lat":31.1655507324,"lon":121.390067997,"tier":"tierB"},{"address":"上海市江川路小学","lat":31.0124129456,"lon":121.4261599361,"tier":"tierB"},{"address":"上海市田园外语实验小学","lat":31.0815918426,"lon":121.4116620038,"tier":"tierB"},{"address":"上海市平南小学","lat":31.1599387087,"lon":121.3992113098,"tier":"tierB"},{"address":"上海市华坪小学","lat":31.0075581473,"lon":121.4292182172,"tier":"tierB"},{"address":"上海市闵行区中心小学","lat":31.0109111588,"lon":121.4342030043,"tier":"tierB"},{"address":"上海师范大学-康城实验学校","lat":31.1679178541,"lon":121.4253099595,"tier":"tierB"},{"address":"上海市闵行中心小学","lat":31.0109111588,"lon":121.4342030043,"tier":"tierB"},{"address":"上海市闵行区航华第一小学","lat":31.1852468601,"lon":121.3574300426,"tier":"tierB"},{"address":"上海中医药大学附属蔷薇小学","lat":31.1321668218,"lon":121.4405550124,"tier":"tierB"},{"address":"上海市平阳小学","lat":31.1411778716,"lon":121.3975240226,"tier":"tierB"},{"address":"上海市鹤北小学","lat":31.0166701866,"lon":121.422258236,"tier":"tierB"},{"address":"上海市江川路小学","lat":31.0124129456,"lon":121.4261599361,"tier":"tierB"},{"address":"上海市华坪小学","lat":31.0075581473,"lon":121.4292182172,"tier":"tierB"},{"address":"上海师范大学附属第三小学","lat":31.1679178541,"lon":121.4253099595,"tier":"tierB"},{"address":"上海市长宁实验小学","lat":31.2152584727,"lon":121.3946797178,"tier":"tierB"},{"address":"上海市建青实验学校","lat":31.1984084672,"lon":121.4072594085,"tier":"tierB"},{"address":"上海市新世纪小学","lat":31.2108453694,"lon":121.4434519579,"tier":"tierB"},{"address":"上海市天山路第一小学","lat":31.2237656002,"lon":121.4324688256,"tier":"tierB"},{"address":"上海市绿苑小学","lat":31.2176269642,"lon":121.3676718034,"tier":"tierB"},{"address":"上海市幸福小学","lat":31.2090978135,"lon":121.4384722013,"tier":"tierB"},{"address":"上海市包玉刚实验学校","lat":31.2308081067,"lon":121.439594095,"tier":"tierB"},{"address":"上海市适存小学","lat":31.2192218809,"lon":121.3763479973,"tier":"tierB"},{"address":"上海市桃李园实验学校","lat":31.3967002396,"lon":121.2539237783,"tier":"tierB"},{"address":"上海市怀少学校","lat":31.3049902982,"lon":121.3178539357,"tier":"tierB"},{"address":"上海市嘉定实验小学","lat":31.40437586,"lon":121.2592979809,"tier":"tierB"},{"address":"上海市上外嘉定外国语学校","lat":31.3319188479,"lon":121.16875696,"tier":"tierB"},{"address":"上海市同济大学附属实验小学","lat":31.2841048568,"lon":121.1704049913,"tier":"tierB"},{"address":"上海市宝山世界外国语学校","lat":31.3651609161,"lon":121.390885994,"tier":"tierB"},{"address":"上海市民办华二宝山实验学校","lat":31.3701638735,"lon":121.3650280004,"tier":"tierB"},{"address":"上海市和衷小学","lat":31.3887829267,"lon":121.50587404,"tier":"tierB"},{"address":"上海市宝山三中心","lat":31.3431911709,"lon":121.4483624551,"tier":"tierB"},{"address":"上海市红星小学","lat":31.3407021089,"lon":121.462796428,"tier":"tierB"},{"address":"上海市杨泰实验学校","lat":31.3728948673,"lon":121.4463949864,"tier":"tierB"},{"address":"上海市广育小学","lat":31.4085613843,"lon":121.4926509829,"tier":"tierB"},{"address":"上海市复旦五浦汇实验学校","lat":31.1496976735,"lon":121.0859323836,"tier":"tierB"},{"address":"上海大学附属中学实验学校","lat":31.3200576492,"lon":121.4022149739,"tier":"tierB"},{"address":"上海市虎林路小学","lat":31.3487881178,"lon":121.4588472974,"tier":"tierB"},{"address":"上海市青浦区逸夫小学","lat":31.1635968444,"lon":121.1164559963,"tier":"tierB"},{"address":"上海市青浦区赵屯小学","lat":31.2617219,"lon":121.0901740025,"tier":"tierB"},{"address":"上海市青浦区教师进修学院附属小学","lat":31.1616504865,"lon":121.1659343045,"tier":"tierB"},{"address":"上海市中山小学","lat":31.0112649231,"lon":121.2479221094,"tier":"tierB"},{"address":"上海市岳阳小学","lat":31.014636063,"lon":121.237248623,"tier":"tierB"},{"address":"上海市九亭小学","lat":31.1449678595,"lon":121.3199660316,"tier":"tierB"},{"address":"上海市朱行小学","lat":30.8544334521,"lon":121.3409986873,"tier":"tierB"},{"address":"上海市金山世外","lat":30.7478523766,"lon":121.3484800451,"tier":"tierB"},{"address":"上海市漕泾小学","lat":30.803144863,"lon":121.402929037,"tier":"tierB"},{"address":"上海市亭林小学","lat":30.8957691013,"lon":121.3266355009,"tier":"tierB"},{"address":"上海市贝港实验小学","lat":30.9171651658,"lon":121.4475850615,"tier":"tierB"},{"address":"上海市崇明东门小学","lat":31.6242378186,"lon":121.4700842908,"tier":"tierB"},{"address":"上海市育秀实验学校","lat":30.9125158479,"lon":121.4729100006,"tier":"tierB"},{"address":"上海市堡镇小学","lat":31.5370489326,"lon":121.6235529601,"tier":"tierB"},{"address":"上海市解放路小学","lat":30.9177875,"lon":121.4603891489,"tier":"tierB"},{"address":"上海市崇明区建设小学","lat":31.6624320901,"lon":121.4677292931,"tier":"tierB"},{"address":"上海市崇明区港沿小校","lat":31.6285699844,"lon":121.4035568627,"tier":"tierB"},{"address":"上海市崇明双语小学","lat":31.6300231925,"lon":121.4158870041,"tier":"tierB"},{"address":"上海市徐汇实验小学","lat":31.1440824609,"lon":121.4595662113,"tier":"tierC"},{"address":"上海市康宁科技实小","lat":31.1825835926,"lon":121.4126216636,"tier":"tierC"},{"address":"上海市华理附小","lat":31.2359290423,"lon":121.4805388602,"tier":"tierC"},{"address":"上海市上实附小","lat":31.1381266849,"lon":121.4358466339,"tier":"tierC"},{"address":"上海市交大附小","lat":31.1984415183,"lon":121.4340323263,"tier":"tierC"},{"address":"上海市徐教院附小","lat":31.1403008597,"lon":121.4449609315,"tier":"tierC"},{"address":"上海市巨鹿路一小","lat":31.2217529391,"lon":121.4666336299,"tier":"tierC"},{"address":"上海市北京东路小学","lat":31.246064795,"lon":121.4914845332,"tier":"tierC"},{"address":"上海市黄教院附属中山学校","lat":31.01613663,"lon":121.2310907387,"tier":"tierC"},{"address":"上海市启新小学","lat":31.1371308764,"lon":121.4260100089,"tier":"tierC"},{"address":"上海市裘锦秋实验学校","lat":31.2461563339,"lon":121.4718899747,"tier":"tierC"},{"address":"上海市静安实验","lat":31.2338449304,"lon":121.4534317728,"tier":"tierC"},{"address":"上海市陈鹤琴小学","lat":31.2292485119,"lon":121.4620455345,"tier":"tierC"},{"address":"上海市威海路三小","lat":31.2361780611,"lon":121.4611109374,"tier":"tierC"},{"address":"上海市静安小学","lat":31.2405388719,"lon":121.4377590365,"tier":"tierC"},{"address":"上海市静安二中心","lat":31.2338449304,"lon":121.4534317728,"tier":"tierC"},{"address":"上海市西康路三小","lat":31.2457254209,"lon":121.4697877602,"tier":"tierC"},{"address":"上海市市西小学","lat":31.2312430254,"lon":121.4478914735,"tier":"tierC"},{"address":"上海市静安区第四中心小学","lat":31.3133618463,"lon":121.453155993,"tier":"tierC"},{"address":"上海市上外临港外国语学校","lat":31.3319188479,"lon":121.16875696,"tier":"tierC"},{"address":"上海市中山北路小学","lat":31.3498916927,"lon":121.5977263173,"tier":"tierC"},{"address":"上海市田家炳小学","lat":31.2359290423,"lon":121.4805388602,"tier":"tierC"},{"address":"上海市元培学校","lat":31.2602565067,"lon":121.5674864793,"tier":"tierC"},{"address":"上海市东方小学","lat":31.1299123208,"lon":121.5185668273,"tier":"tierC"},{"address":"上海市洋泾-菊园实验学校","lat":31.2339917515,"lon":121.5179769999,"tier":"tierC"},{"address":"上海市张江高科实验小学","lat":31.2069714079,"lon":121.6004509678,"tier":"tierC"},{"address":"上海市浦东南路小学","lat":31.206768795,"lon":121.5330493986,"tier":"tierC"},{"address":"上海市上南二村小学","lat":31.1788795456,"lon":121.5051632108,"tier":"tierC"},{"address":"上海市南码头小学","lat":31.2055058517,"lon":121.5148630239,"tier":"tierC"},{"address":"上海市外高桥保税区实验小学","lat":31.3445278905,"lon":121.593329022,"tier":"tierC"},{"address":"上海市北蔡镇中心小学","lat":31.1897767047,"lon":121.5598456723,"tier":"tierC"},{"address":"上海市龚路中心小学","lat":31.2735503917,"lon":121.6911258361,"tier":"tierC"},{"address":"上海市御桥小学","lat":31.1797520261,"lon":121.5735436635,"tier":"tierC"},{"address":"上海市上南实验小学","lat":31.1776748511,"lon":121.4993159606,"tier":"tierC"},{"address":"上海市澧溪小学","lat":31.1150448909,"lon":121.5856689913,"tier":"tierC"},{"address":"上海市莲溪小学","lat":31.1847256123,"lon":121.5642855473,"tier":"tierC"},{"address":"上海市观澜小学","lat":31.1804828458,"lon":121.7033770165,"tier":"tierC"},{"address":"上海市园西小学","lat":31.1993238556,"lon":121.6790394948,"tier":"tierC"},{"address":"上海市六一小学","lat":31.3109936978,"lon":121.5284273473,"tier":"tierC"},{"address":"上海市惠南小学","lat":31.0735048409,"lon":121.7495149756,"tier":"tierC"},{"address":"上海市工商附小","lat":31.0552131397,"lon":121.7606128216,"tier":"tierC"},{"address":"上海市上外附属双语学校","lat":31.2863399103,"lon":121.5342470195,"tier":"tierC"},{"address":"上海市同济小学","lat":31.290388793,"lon":121.5157920514,"tier":"tierC"},{"address":"上海市沪东外国语学校","lat":31.2862299719,"lon":121.5040082594,"tier":"tierC"},{"address":"上海市上音实验学校","lat":31.1870468378,"lon":121.5204549757,"tier":"tierC"},{"address":"上海市中原路小学","lat":31.3337767662,"lon":121.5413612398,"tier":"tierC"},{"address":"上海市五角场小学","lat":31.3061676685,"lon":121.5188417986,"tier":"tierC"},{"address":"上海市许昌路第五小学","lat":31.2780358417,"lon":121.5186660003,"tier":"tierC"},{"address":"上海市平凉路三小","lat":31.2809528543,"lon":121.5577180357,"tier":"tierC"},{"address":"上海市杨教院实验学校小学部","lat":31.1870468378,"lon":121.5204549757,"tier":"tierC"},{"address":"上海市回民小学","lat":31.3074930408,"lon":121.5414233127,"tier":"tierC"},{"address":"上海市政立路二小","lat":31.3136939881,"lon":121.5113996052,"tier":"tierC"},{"address":"上海市凤城新村小学","lat":31.2889946709,"lon":121.5241195232,"tier":"tierC"},{"address":"上海市内江路二小","lat":31.2863631972,"lon":121.5528618832,"tier":"tierC"},{"address":"上海市二联小学","lat":31.288867686,"lon":121.5338853617,"tier":"tierC"},{"address":"上海市怀德路第一小学","lat":31.2594828618,"lon":121.5321209998,"tier":"tierC"},{"address":"上海市市东实验学校小学部（原市东小学）","lat":31.1870468378,"lon":121.5204549757,"tier":"tierC"},{"address":"上海市虹外一小","lat":31.2542111017,"lon":121.4829279037,"tier":"tierC"},{"address":"上海市华附实小","lat":31.2359290423,"lon":121.4805388602,"tier":"tierC"},{"address":"上海市四川北路小学","lat":31.2629410699,"lon":121.4896215975,"tier":"tierC"},{"address":"上海市凉城三小","lat":31.3027077126,"lon":121.4746515455,"tier":"tierC"},{"address":"上海市虹口六中心","lat":31.2697466989,"lon":121.5115864545,"tier":"tierC"},{"address":"上海市曹杨中学附属学校","lat":31.2432927278,"lon":121.3658054838,"tier":"tierC"},{"address":"上海市洵阳路小学","lat":31.255517146,"lon":121.4315227302,"tier":"tierC"},{"address":"上海市沪太新村第一小学","lat":31.2723733816,"lon":121.4455139283,"tier":"tierC"},{"address":"上海市万里城实验学校","lat":31.2704689456,"lon":121.4256117003,"tier":"tierC"},{"address":"上海市曹二附校","lat":31.2359290423,"lon":121.4805388602,"tier":"tierC"},{"address":"上海市子长学校","lat":31.2695577256,"lon":121.4389249473,"tier":"tierC"},{"address":"上海市华师附属外国语学校","lat":31.3319188479,"lon":121.16875696,"tier":"tierC"},{"address":"上海市曹杨新村六小","lat":31.2448633572,"lon":121.4104784863,"tier":"tierC"},{"address":"上海市上外尚阳外国语学校","lat":31.2662522886,"lon":121.3802579619,"tier":"tierC"},{"address":"上海市沪太路一小","lat":31.2887959409,"lon":121.4294527055,"tier":"tierC"},{"address":"上海市普教院附校","lat":31.2447368527,"lon":121.452284996,"tier":"tierC"},{"address":"上海市华师大四附校","lat":31.2341954634,"lon":121.4127323349,"tier":"tierC"},{"address":"上海市曹杨六小","lat":31.2827015367,"lon":121.4734463789,"tier":"tierC"},{"address":"上海市协和双语小学","lat":31.6300231925,"lon":121.4158870041,"tier":"tierC"},{"address":"上海市福山实验学校","lat":31.0271872755,"lon":121.4181711256,"tier":"tierC"},{"address":"上海市明星学校","lat":31.1362426994,"lon":121.3819913322,"tier":"tierC"},{"address":"上海市日新实验小学","lat":31.159832639,"lon":121.3927360542,"tier":"tierC"},{"address":"上海市莘城学校","lat":31.1055878729,"lon":121.396057988,"tier":"tierC"},{"address":"上海市莘松小学","lat":31.1219652638,"lon":121.3707104116,"tier":"tierC"},{"address":"上海市文来实验小学","lat":31.1433718335,"lon":121.1028299593,"tier":"tierC"},{"address":"上海市新梅小学","lat":31.1304703484,"lon":121.3940346447,"tier":"tierC"},{"address":"上海市交大附属实验小学","lat":30.9171651658,"lon":121.4475850615,"tier":"tierC"},{"address":"上海市华漕小学","lat":31.2296193648,"lon":121.2851145626,"tier":"tierC"},{"address":"上海市龙柏第一小学","lat":31.1890888973,"lon":121.3716089866,"tier":"tierC"},{"address":"上海市虹桥小学","lat":31.1837047337,"lon":121.7165123092,"tier":"tierC"},{"address":"上海市华师大附属紫竹小学","lat":31.2341954634,"lon":121.4127323349,"tier":"tierC"},{"address":"上海市法华镇路三小","lat":31.2100933926,"lon":121.4348374236,"tier":"tierC"},{"address":"上海市玉屏南路小学","lat":31.2185840874,"lon":121.4132658385,"tier":"tierC"},{"address":"上海市开元小学","lat":31.2177115052,"lon":121.4329303749,"tier":"tierC"},{"address":"上海市复旦小学","lat":31.2087529004,"lon":121.4379299841,"tier":"tierC"},{"address":"上海市新虹桥小学","lat":31.208853587,"lon":121.3947784416,"tier":"tierC"},{"address":"上海市西郊学校","lat":31.2092466037,"lon":121.3676830322,"tier":"tierC"},{"address":"上海市练川实验学校","lat":31.3841469707,"lon":121.2733491858,"tier":"tierC"},{"address":"上海市威宁小学","lat":31.2142838663,"lon":121.3913121501,"tier":"tierC"},{"address":"上海市娄塘学校","lat":31.4385672458,"lon":121.220560532,"tier":"tierC"},{"address":"上海市江桥小学","lat":31.2632322598,"lon":121.3439462972,"tier":"tierC"},{"address":"上海市苏民学校","lat":31.2993318642,"lon":121.3124420043,"tier":"tierC"},{"address":"上海市迎园小学","lat":31.3908857734,"lon":121.2715200561,"tier":"tierC"},{"address":"上海市南翔小学","lat":31.3055408811,"lon":121.3153579938,"tier":"tierC"},{"address":"上海市安亭小学","lat":31.3082172323,"lon":121.1600461813,"tier":"tierC"},{"address":"上海市疁城实验学校","lat":31.3849689055,"lon":121.2502669563,"tier":"tierC"},{"address":"上海市同济大学嘉定黄渡小学","lat":31.2828348565,"lon":121.2162619605,"tier":"tierC"},{"address":"上海市高境二小","lat":31.3244774732,"lon":121.4869251835,"tier":"tierC"},{"address":"上海教育学会宝山实验学校","lat":28.1717530217,"lon":109.2062965435,"tier":"tierC"},{"address":"上海市上大附属经纬学校","lat":31.1604156735,"lon":121.4444405431,"tier":"tierC"},{"address":"上海市杨行中心小学","lat":31.0109111588,"lon":121.4342030043,"tier":"tierC"},{"address":"上海市上大附中实验学校","lat":31.2883767173,"lon":121.4143094,"tier":"tierC"},{"address":"上海市宝山二中心小学","lat":31.3321834189,"lon":121.4404852141,"tier":"tierC"},{"address":"上海市大华小学","lat":31.2824322734,"lon":121.4300202244,"tier":"tierC"},{"address":"上海市虎林路三小","lat":31.3421901192,"lon":121.4649008875,"tier":"tierC"},{"address":"上海市行知小学","lat":31.2881769809,"lon":121.4201643757,"tier":"tierC"},{"address":"上海市嘉华小学","lat":31.2746018487,"lon":121.4224769734,"tier":"tierC"},{"address":"上海市江湾中心校","lat":31.3210293019,"lon":121.4934523612,"tier":"tierC"},{"address":"上海市华师大宝山实验学校","lat":31.4107456843,"lon":121.4927092829,"tier":"tierC"},{"address":"上海市毓秀学校","lat":31.1632118249,"lon":121.1534379765,"tier":"tierC"},{"address":"上海市庆华小学","lat":31.2417545675,"lon":121.7331461425,"tier":"tierC"},{"address":"上海市徐泾小学","lat":31.1739856723,"lon":121.2774869607,"tier":"tierC"},{"address":"上海外国语西外外语学校","lat":31.2359290423,"lon":121.4805388602,"tier":"tierC"},{"address":"上海市东华大学附属实验学校","lat":31.0422798332,"lon":121.1901699583,"tier":"tierC"},{"address":"上海市枫泾小学","lat":30.8967332187,"lon":121.0249351038,"tier":"tierC"},{"address":"上海对外经贸大学附属松江实验学校","lat":31.0192658163,"lon":121.1913579674,"tier":"tierC"},{"address":"上海市金卫小学","lat":30.7353971558,"lon":121.3251450324,"tier":"tierC"},{"address":"上海市金教院附属小学","lat":31.2359290423,"lon":121.4805388602,"tier":"tierC"},{"address":"上海市古华小学","lat":30.9218203357,"lon":121.4765343876,"tier":"tierC"},{"address":"上海市华亭学校","lat":31.4736250905,"lon":121.2934432919,"tier":"tierC"},{"address":"上海市江海小学","lat":22.5661154518,"lon":113.1175571801,"tier":"tierC"},{"address":"上海市北门小学","lat":31.6327233193,"lon":121.4050100515,"tier":"tierC"},{"address":"上海市西门小学","lat":31.6324476915,"lon":121.3989238521,"tier":"tierC"}]